{
  "places": [
    {
      "name": "Wilhelma",
      "image": "",
      "lat": "48.8039187",
      "lng": "9.2080606"
    },
    {
      "name": "Weissenhofsiedlung",
      "image": "",
      "lat": "48.800637",
      "lng": "9.1769652"
    },
    {
      "name": "Staatsgalerie Stuttgart",
      "image": "",
      "lat": "48.7799071",
      "lng": "9.1859166"
    },
    {
      "name": "Killesberg",
      "image": "",
      "lat": "48.8027724",
      "lng": "9.1632518"
    },
    {
      "name": "Mercedes-Benz Arena Stuttgart",
      "image": "",
      "lat": "48.7923639",
      "lng": "9.2309251"
    }
  ]
}
