[
  {
    "name": "Wilhelma",
    "images": [],
    "lat": "48.8039187",
    "lng": "9.2080606",
    "visible": true,
    "selected": false
  },
  {
    "name": "Weissenhofsiedlung",
    "images": [],
    "lat": "48.800637",
    "lng": "9.1769652",
    "visible": true,
    "selected": false
  },
  {
    "name": "Staatsgalerie Stuttgart",
    "images": [],
    "lat": "48.7799071",
    "lng": "9.1859166",
    "visible": true,
    "selected": false
  },
  {
    "name": "Killesberg",
    "images": [],
    "lat": "48.8027724",
    "lng": "9.1632518",
    "visible": true,
    "selected": false
  },
  {
    "name": "Mercedes-Benz Arena Stuttgart",
    "images": [],
    "lat": "48.7923639",
    "lng": "9.2309251",
    "visible": true,
    "selected": false
  }
]
